City_ID,City,Lat,Lng,Max Temp,Humidity,Cloudiness,Wind Speed,Country,Date
0,petropavlovsk-kamchatsky,53.0452,158.6483,1.33,41,40,7.0,RU,2024-11-11 22:14:48
1,horta,38.5333,-28.6333,20.57,95,100,7.6,PT,2024-11-11 22:19:38
2,port-aux-francais,-49.35,70.2167,5.18,93,100,9.63,TF,2024-11-11 22:19:40
3,camana,-16.6228,-72.7111,18.12,87,77,2.08,PE,2024-11-11 22:19:41
4,serdar,38.9764,56.2757,10.29,83,100,0.99,TM,2024-11-11 22:19:42
5,waitangi,-43.9535,-176.5597,12.12,72,21,1.79,NZ,2024-11-11 22:19:44
6,anadyr,64.75,177.4833,-12.72,78,75,4.0,RU,2024-11-11 22:19:45
7,chernomorskoye,45.5039,32.6997,7.97,74,82,6.8,UA,2024-11-11 22:19:46
8,penrith,54.6658,-2.7576,4.09,85,84,0.39,GB,2024-11-11 22:19:48
9,rio grande,-32.035,-52.0986,14.58,68,100,8.03,BR,2024-11-11 22:19:49
10,la passe,45.5549,-0.8967,8.15,90,46,6.33,FR,2024-11-11 22:19:50
11,fortuna,40.5982,-124.1573,10.52,96,40,1.34,US,2024-11-11 22:19:51
12,diapaga,12.0708,1.7889,20.54,23,0,2.95,BF,2024-11-11 22:19:52
13,brisas de zicatela,15.8369,-97.0419,26.48,84,95,1.92,MX,2024-11-11 22:19:54
14,hammerfest,70.6634,23.6821,5.25,93,75,2.06,NO,2024-11-11 22:15:04
15,grytviken,-54.2811,-36.5092,-0.22,86,98,5.37,GS,2024-11-11 22:19:57
16,chonchi,-42.6128,-73.8092,9.51,94,100,1.42,CL,2024-11-11 22:19:58
17,kalyazin,57.2403,37.8433,-1.1,90,99,2.89,RU,2024-11-11 22:20:01
18,adamstown,-25.066,-130.1015,21.79,67,100,1.34,PN,2024-11-11 22:20:02
19,pierre,44.3683,-100.351,2.51,87,0,9.26,US,2024-11-11 22:19:04
20,kalakkadu,8.5,77.5667,31.88,48,63,0.17,IN,2024-11-11 22:20:04
21,dubbo,-32.25,148.6167,29.07,32,20,3.6,AU,2024-11-11 22:17:34
22,anna regina,7.2644,-58.5077,26.07,87,98,4.55,GY,2024-11-11 22:20:06
23,addiet canna,11.2667,37.4833,16.73,72,27,0.9,ET,2024-11-11 22:20:08
24,buckeye,33.3703,-112.5838,19.05,21,0,2.26,US,2024-11-11 22:20:09
25,mar del plata,-38.0023,-57.5575,10.05,80,23,2.68,AR,2024-11-11 22:15:31
26,kirillov,59.863,38.3813,-1.52,80,100,1.96,RU,2024-11-11 22:20:12
27,qaqortoq,60.7167,-46.0333,-2.9,75,8,11.1,GL,2024-11-11 22:20:15
28,ushuaia,-54.8,-68.3,4.28,95,98,1.36,AR,2024-11-11 22:16:31
29,el calafate,-50.3408,-72.2768,7.35,80,6,4.5,AR,2024-11-11 22:20:17
30,yuzhno-kurilsk,44.0306,145.8556,7.31,85,100,2.57,RU,2024-11-11 22:20:18
31,iqaluit,63.7506,-68.5145,-13.5,84,76,0.89,CA,2024-11-11 22:20:19
32,mont-laurier,46.5501,-75.4993,1.45,90,100,6.31,CA,2024-11-11 22:20:20
33,puerto san jose,13.9256,-90.8244,25.23,87,99,1.9,GT,2024-11-11 22:20:22
34,mancio lima,-7.6142,-72.8958,25.74,78,77,1.2,BR,2024-11-11 22:20:23
35,georgetown,5.4112,100.3354,30.53,72,40,4.12,MY,2024-11-11 22:20:24
36,itoman,26.1247,127.6694,26.01,83,75,8.75,JP,2024-11-11 22:20:25
37,blackmans bay,-43.0167,147.3167,21.07,56,0,3.43,AU,2024-11-11 22:20:26
38,ilulissat,69.2167,-51.1,-2.99,86,75,6.81,GL,2024-11-11 22:20:27
39,port alfred,-33.5906,26.891,18.43,90,10,1.34,ZA,2024-11-11 22:20:29
40,ribeira grande,38.5167,-28.7,20.99,95,100,7.6,PT,2024-11-11 22:20:30
41,aquidauana,-20.4711,-55.7872,29.0,43,71,1.33,BR,2024-11-11 22:20:31
42,sarupathar,26.1984,93.8094,25.89,65,55,1.97,IN,2024-11-11 22:20:32
43,nassau,40.7507,-73.5829,15.38,64,0,2.68,US,2024-11-11 22:20:33
44,numan,9.4667,12.0333,22.29,38,29,1.68,NG,2024-11-11 22:20:34
45,fort bragg,35.139,-79.006,15.91,96,0,0.0,US,2024-11-11 22:20:36
46,aral,40.5156,81.2636,12.34,41,46,2.26,CN,2024-11-11 22:20:37
47,altai,46.3722,96.2583,-2.15,53,73,10.44,MN,2024-11-11 22:20:38
48,gebeit,21.0667,36.3167,20.94,73,0,2.7,SD,2024-11-11 22:20:39
49,obihiro,42.9172,143.2044,10.91,44,3,1.05,JP,2024-11-11 22:20:40
50,hawaiian paradise park,19.5933,-154.9731,22.73,97,40,1.54,US,2024-11-11 22:20:33
51,jamestown,42.097,-79.2353,7.23,81,100,7.2,US,2024-11-11 22:20:43
52,invercargill,-46.4,168.35,14.45,69,73,4.92,NZ,2024-11-11 22:20:44
53,freetown,8.484,-13.2299,26.36,77,6,0.79,SL,2024-11-11 22:20:45
54,colonia,50.9333,6.95,8.96,92,75,4.12,DE,2024-11-11 22:20:47
55,lobujya,27.95,86.8167,-5.02,48,0,3.28,NP,2024-11-11 22:20:48
56,badger,64.8,-147.5333,-17.86,77,0,0.0,US,2024-11-11 22:20:50
57,bandipura,34.4167,74.65,15.13,45,11,1.52,IN,2024-11-11 22:20:51
58,tarko-sale,64.9225,77.785,-21.16,94,100,6.67,RU,2024-11-11 22:20:52
59,lincoln city,44.9582,-124.0179,11.56,88,94,3.13,US,2024-11-11 22:20:53
60,monkey bay,-14.0728,34.9201,27.7,60,0,2.04,MW,2024-11-11 22:20:54
61,waraseoni,21.75,80.0333,26.56,47,0,1.82,IN,2024-11-11 22:20:55
62,papatowai,-46.5619,169.4708,14.67,54,72,3.63,NZ,2024-11-11 22:19:15
63,thirsk,54.233,-1.3441,3.94,93,61,2.06,GB,2024-11-11 22:20:58
64,puerto ayora,-0.7393,-90.3518,21.42,88,45,2.24,EC,2024-11-11 22:20:59
65,edinburgh of the seven seas,-37.0676,-12.3116,13.31,81,97,5.9,SH,2024-11-11 22:21:00
66,khandyga,62.6667,135.6,-19.28,96,95,0.86,RU,2024-11-11 22:21:01
67,holualoa,19.6228,-155.9522,23.08,87,24,0.83,US,2024-11-11 22:21:02
68,albany,42.6001,-73.9662,11.23,67,85,0.45,US,2024-11-11 22:18:11
69,hermanus,-34.4187,19.2345,14.33,76,10,0.87,ZA,2024-11-11 22:18:42
70,udachny,66.4167,112.4,-16.74,97,100,2.11,RU,2024-11-11 22:21:06
71,thompson,55.7435,-97.8558,-2.96,83,100,4.32,CA,2024-11-11 22:21:07
72,vrindavan,27.5833,77.7,29.2,35,0,1.51,IN,2024-11-11 22:21:08
73,avarua,-21.2078,-159.775,23.03,64,40,4.63,CK,2024-11-11 22:19:47
74,wick,58.4333,-3.0833,7.03,87,85,1.54,GB,2024-11-11 22:21:10
75,iskateley,67.6803,53.1512,-10.71,93,68,3.12,RU,2024-11-11 22:21:11
76,tari,-11.1105,14.3559,18.92,93,100,0.73,AO,2024-11-11 22:21:13
77,port elizabeth,-33.918,25.5701,19.06,93,0,1.79,ZA,2024-11-11 22:21:14
78,bilibino,68.0546,166.4372,-23.42,96,81,2.15,RU,2024-11-11 22:21:15
79,margaret river,-33.95,115.0667,19.12,59,57,5.87,AU,2024-11-11 22:20:20
80,trapani,37.8333,12.6667,14.6,84,97,1.38,IT,2024-11-11 22:17:21
81,vorgashor,67.5833,63.95,-18.35,91,45,4.05,RU,2024-11-11 22:21:19
82,la ronge,55.1001,-105.2842,2.06,69,100,6.58,CA,2024-11-11 22:21:20
83,atafu village,-8.5421,-172.5159,28.74,72,21,5.94,TK,2024-11-11 22:21:21
84,west island,-12.1568,96.8225,28.99,74,100,6.17,CC,2024-11-11 22:21:22
85,bethel,41.3712,-73.414,11.98,75,10,0.45,US,2024-11-11 22:19:10
86,puerto natales,-51.7236,-72.4875,7.8,84,82,4.57,CL,2024-11-11 22:21:25
87,skhira,34.2992,10.07,18.44,67,9,2.54,TN,2024-11-11 22:21:26
88,klyuchi,52.2667,79.1667,-6.79,70,100,7.14,RU,2024-11-11 22:21:27
89,saijo,33.9167,133.1833,20.76,71,22,1.71,JP,2024-11-11 22:21:28
90,tiksi,71.6872,128.8694,-19.09,96,100,0.59,RU,2024-11-11 22:21:30
91,carauari,-4.8828,-66.8958,26.26,69,94,0.81,BR,2024-11-11 22:21:31
92,wajir,1.7471,40.0573,26.62,68,50,6.23,KE,2024-11-11 22:21:32
93,purpe,64.4803,76.6897,-20.55,93,100,6.52,RU,2024-11-11 22:21:33
94,uturoa,-16.7333,-151.4333,26.13,80,78,9.21,PF,2024-11-11 22:19:55
95,jinghong,21.991,100.7341,27.18,65,26,0.8,CN,2024-11-11 22:21:36
96,ulanhot,46.0833,122.0833,6.04,23,1,2.25,CN,2024-11-11 22:21:22
97,port lincoln,-34.7333,135.8667,19.53,65,2,8.92,AU,2024-11-11 22:21:38
98,queenstown,-31.8976,26.8753,13.06,80,61,0.68,ZA,2024-11-11 22:21:39
99,hamilton,39.1834,-84.5333,9.1,75,0,5.14,US,2024-11-11 22:19:44
100,vorkuta,67.5,64.0,-17.98,88,48,4.07,RU,2024-11-11 22:21:41
101,petrolina,-9.3986,-40.5008,23.03,94,100,1.54,BR,2024-11-11 22:21:42
102,sisimiut,66.9395,-53.6735,-3.57,69,100,3.49,GL,2024-11-11 22:21:44
103,new norfolk,-42.7826,147.0587,21.51,23,2,1.64,AU,2024-11-11 22:21:45
104,ust-nera,64.5667,143.2,-29.25,99,81,0.97,RU,2024-11-11 22:21:47
105,nemuro,43.3236,145.575,9.98,83,100,7.42,JP,2024-11-11 22:21:48
106,pangoa,-12.1167,-73.0,20.94,99,100,1.3,PE,2024-11-11 22:21:49
107,tanjung sepat,2.6579,101.5629,31.08,70,40,1.03,MY,2024-11-11 22:21:50
108,tabou,4.423,-7.3528,25.45,84,24,2.59,CI,2024-11-11 22:21:51
109,manistee,44.2445,-86.3242,3.86,87,0,3.6,US,2024-11-11 22:21:52
110,launceston,-41.45,147.1667,24.8,38,9,6.17,AU,2024-11-11 22:21:53
111,bredasdorp,-34.5322,20.0403,16.08,80,25,0.66,ZA,2024-11-11 22:21:55
112,vilyuchinsk,52.9306,158.4028,2.15,75,14,11.8,RU,2024-11-11 22:21:56
113,faranah,10.0404,-10.7434,19.54,65,8,0.94,GN,2024-11-11 22:21:57
114,harstad,68.799,16.5293,5.64,97,100,6.71,NO,2024-11-11 22:21:58
115,knysna,-34.0363,23.0471,19.75,63,1,1.34,ZA,2024-11-11 22:21:59
116,vadso,70.0744,29.7487,1.09,93,75,4.63,NO,2024-11-11 22:22:00
117,talnakh,69.4865,88.3972,-27.89,91,52,0.68,RU,2024-11-11 22:22:02
118,isla soyaltepec,18.2117,-96.4839,24.59,88,97,0.28,MX,2024-11-11 22:22:03
119,sinop,41.7711,34.8709,6.95,90,14,0.87,TR,2024-11-11 22:22:04
120,feltre,46.0235,11.907,8.1,95,96,1.7,IT,2024-11-11 22:22:05
121,port mathurin,-19.6833,63.4167,24.37,81,52,8.84,MU,2024-11-11 22:22:06
122,saldanha,-33.0117,17.9442,16.22,88,22,8.03,ZA,2024-11-11 22:22:07
123,oriximina,-1.7656,-55.8661,26.74,67,100,1.23,BR,2024-11-11 22:22:08
124,pampa,35.5362,-100.9599,12.02,71,0,5.14,US,2024-11-11 22:22:10
125,longyearbyen,78.2186,15.6401,3.91,81,75,4.12,SJ,2024-11-11 22:22:11
126,wailua homesteads,22.0669,-159.378,24.44,90,100,6.69,US,2024-11-11 22:22:12
127,tezu,27.9167,96.1667,27.69,32,1,1.22,IN,2024-11-11 22:22:13
128,al bawiti,28.3492,28.8659,14.45,78,75,2.02,EG,2024-11-11 22:22:14
129,beihai,21.4833,109.1,25.87,68,11,2.46,CN,2024-11-11 22:22:17
130,boa vista,2.8197,-60.6733,27.99,69,40,5.14,BR,2024-11-11 22:22:18
131,vegreville,53.5001,-112.0518,3.07,89,100,3.54,CA,2024-11-11 22:22:19
132,modimolle,-24.7,28.4,18.03,76,69,3.14,ZA,2024-11-11 22:22:20
133,minot air force base,48.4209,-101.3391,1.1,80,0,8.23,US,2024-11-11 22:22:21
134,rikaze,29.25,88.8833,8.27,25,0,1.38,CN,2024-11-11 22:22:22
135,mejit,10.2753,170.8646,28.03,78,98,6.19,MH,2024-11-11 22:22:24
136,punta arenas,-53.15,-70.9167,9.06,76,40,12.86,CL,2024-11-11 22:22:25
137,mili,6.0815,171.735,28.21,76,100,4.01,MH,2024-11-11 22:22:26
138,gufeng,26.9083,118.9819,22.15,63,47,2.35,CN,2024-11-11 22:22:27
139,sheridan,44.8333,-106.9173,10.1,39,12,1.66,US,2024-11-11 22:22:28
140,san pedro pochutla,15.7333,-96.4667,24.28,85,100,1.81,MX,2024-11-11 22:22:29
141,nova sintra,14.8667,-24.7167,27.08,66,64,6.16,CV,2024-11-11 22:22:30
142,afaahiti,-17.75,-149.2833,23.56,80,99,7.95,PF,2024-11-11 22:22:32
143,callaway,30.153,-85.5699,22.76,96,99,1.34,US,2024-11-11 22:22:33
144,veraval,20.9,70.3667,30.39,39,1,3.27,IN,2024-11-11 22:22:34
145,happy valley-goose bay,53.3168,-60.3315,-0.83,100,100,3.6,CA,2024-11-11 22:22:35
146,brandon,27.9378,-82.2859,23.39,94,0,1.54,US,2024-11-11 22:22:36
147,cobija,-11.0267,-68.7692,24.33,86,63,1.0,BO,2024-11-11 22:22:37
148,ak'ordat,15.5486,37.8867,25.66,55,4,3.86,ER,2024-11-11 22:22:39
149,rio verde de mato grosso,-18.9181,-54.8442,25.39,65,19,1.25,BR,2024-11-11 22:22:40
150,tura,25.5198,90.2201,26.86,52,1,0.76,IN,2024-11-11 22:22:42
151,gao,16.6362,1.637,19.78,20,0,4.36,ML,2024-11-11 22:22:43
152,kete krachi,7.7939,-0.0498,25.8,76,59,0.19,GH,2024-11-11 22:22:44
153,humaita,-7.5061,-63.0208,24.07,88,39,1.03,BR,2024-11-11 22:22:46
154,adre,13.4667,22.2,20.46,30,0,7.14,TD,2024-11-11 22:22:47
155,palikir - national government center,6.9248,158.1611,30.41,74,100,1.54,FM,2024-11-11 22:22:48
156,kiunga,-6.1219,141.2906,30.58,66,100,1.16,PG,2024-11-11 22:22:49
157,aleksandrov gay,50.147,48.5704,-1.11,53,0,1.56,RU,2024-11-11 22:22:50
158,hithadhoo,-0.6,73.0833,28.17,76,100,7.27,MV,2024-11-11 22:22:53
159,broken hill,-31.95,141.4333,30.75,25,11,6.87,AU,2024-11-11 22:20:35
160,dickinson,29.4608,-95.0513,21.66,87,0,0.0,US,2024-11-11 22:22:55
161,ancud,-41.8697,-73.8203,9.97,89,100,3.98,CL,2024-11-11 22:22:56
162,kone,-21.0595,164.8658,28.35,52,31,1.3,NC,2024-11-11 22:22:57
163,saipan,15.1355,145.701,31.39,80,75,7.2,MP,2024-11-11 22:22:58
164,brookshire,29.7861,-95.9511,19.97,92,0,2.57,US,2024-11-11 22:22:59
165,peraiyur,9.7358,77.7896,28.72,53,5,0.28,IN,2024-11-11 22:23:01
166,fu'an,27.0892,119.6453,25.89,63,30,1.03,CN,2024-11-11 22:23:02
167,hasaki,35.7333,140.8333,18.95,63,100,1.62,JP,2024-11-11 22:22:47
168,isafjordur,66.0755,-23.124,8.07,90,100,8.98,IS,2024-11-11 22:23:04
169,pachperwa,27.5167,82.65,27.07,48,0,2.03,IN,2024-11-11 22:23:05
170,ribeira brava,32.65,-17.0667,20.35,70,11,1.14,PT,2024-11-11 22:23:06
171,nerchinsk,51.9833,116.5833,-5.1,81,44,0.87,RU,2024-11-11 22:23:07
172,mana,5.6592,-53.7767,24.38,93,100,4.34,GF,2024-11-11 22:23:09
173,lagoa,39.05,-27.9833,19.59,92,100,12.99,PT,2024-11-11 22:23:10
174,aginskoye,51.1,114.53,-2.92,61,95,3.24,RU,2024-11-11 22:23:11
175,stanley,54.868,-1.6985,2.51,92,67,1.03,GB,2024-11-11 22:19:43
176,yellowknife,62.456,-114.3525,-6.99,99,100,7.15,CA,2024-11-11 22:23:13
177,betio village,1.358,172.9211,28.44,68,25,6.42,KI,2024-11-11 22:23:14
178,smithers,54.7804,-127.1743,1.18,100,100,0.0,CA,2024-11-11 22:23:15
179,nuku'alofa,-21.1333,-175.2,22.19,100,100,3.6,TO,2024-11-11 22:23:17
180,laojunmiao,39.8333,97.7333,6.31,42,16,1.94,CN,2024-11-11 22:23:18
181,giddings,30.1827,-96.9364,19.92,56,0,2.06,US,2024-11-11 22:23:19
182,sabha,27.0377,14.4283,16.58,33,44,4.41,LY,2024-11-11 22:23:20
183,college,64.8569,-147.8028,-18.08,79,75,0.0,US,2024-11-11 22:23:21
184,chamical,-30.36,-66.314,17.86,55,0,1.67,AR,2024-11-11 22:23:23
185,kodiak,57.79,-152.4072,-0.27,74,0,2.06,US,2024-11-11 22:23:24
186,manicore,-5.8092,-61.3003,23.32,92,14,1.24,BR,2024-11-11 22:23:25
187,lorengau,-2.0226,147.2712,29.37,72,36,3.85,PG,2024-11-11 22:23:26
188,zholymbet,51.7433,71.7122,-12.54,92,12,5.47,KZ,2024-11-11 22:23:27
189,bac lieu,9.285,105.7244,29.52,69,97,1.42,VN,2024-11-11 22:23:28
190,menaka,15.9182,2.4022,20.71,19,0,4.09,ML,2024-11-11 22:23:29
191,krasnyy kholm,58.0607,37.1203,-1.82,88,99,3.1,RU,2024-11-11 22:23:31
192,selfoss,63.9331,-20.9971,10.58,96,100,12.68,IS,2024-11-11 22:19:51
193,filey,54.21,-0.2892,10.53,52,91,0.89,GB,2024-11-11 22:23:33
194,al burayqah,30.4062,19.5739,19.51,45,0,5.83,LY,2024-11-11 22:23:35
195,aasiaat,68.7098,-52.8699,-2.37,74,100,8.97,GL,2024-11-11 22:23:36
196,weno,7.4515,151.8468,26.47,79,100,2.36,FM,2024-11-11 22:23:38
197,cadereyta,25.5833,-99.9833,19.4,69,32,1.58,MX,2024-11-11 22:23:39
198,kayangel,8.0823,134.7173,28.68,73,67,3.77,PW,2024-11-11 22:23:40
199,lubango,-14.9172,13.4925,15.23,83,100,1.56,AO,2024-11-11 22:23:41
200,raja,8.4596,25.678,23.31,41,34,1.24,SS,2024-11-11 22:23:42
201,poronaysk,49.2167,143.1167,0.88,64,100,2.4,RU,2024-11-11 22:23:45
202,westport,41.1415,-73.3579,13.28,68,0,4.02,US,2024-11-11 22:23:05
203,saudarkrokur,65.7461,-19.6394,11.69,82,83,12.5,IS,2024-11-11 22:23:47
204,birobidzhan,48.8,132.95,0.37,29,43,4.94,RU,2024-11-11 22:23:48
205,banda aceh,5.5577,95.3222,27.74,71,100,1.01,ID,2024-11-11 22:23:49
206,sorong,-0.8833,131.25,27.37,74,94,0.9,ID,2024-11-11 22:23:51
207,tawau,4.2498,117.8871,31.63,59,32,4.02,MY,2024-11-11 22:23:52
208,botoroaga,44.1483,25.5447,5.27,71,100,2.96,RO,2024-11-11 22:23:53
209,tobelo,1.7284,128.0095,29.37,71,54,1.12,ID,2024-11-11 22:23:55
210,kempsey,-31.0833,152.8333,23.3,78,73,2.24,AU,2024-11-11 22:23:56
211,vukovar,45.3433,18.9997,2.87,93,100,1.54,HR,2024-11-11 22:23:57
212,muli,2.9167,73.5667,28.29,69,20,3.3,MV,2024-11-11 22:23:58
213,remire-montjoly,4.9167,-52.2667,23.02,100,0,2.06,GF,2024-11-11 22:23:59
214,alotau,-10.3069,150.4462,29.24,72,100,3.33,PG,2024-11-11 22:24:00
215,glendive,47.1053,-104.7125,2.79,87,0,2.57,US,2024-11-11 22:24:01
216,nar'yan-mar,67.6713,53.087,-10.71,93,68,3.11,RU,2024-11-11 22:21:11
217,lebu,-37.6167,-73.65,10.52,82,95,6.85,CL,2024-11-11 22:24:04
218,trairi,-3.2778,-39.2689,24.82,77,85,3.66,BR,2024-11-11 22:24:05
219,nahiyat al fuhud,30.9697,46.7228,23.88,48,81,5.05,IQ,2024-11-11 22:24:06
220,kupang,-10.1667,123.5833,34.32,55,20,5.66,ID,2024-11-11 22:24:07
221,nikolayevsk-on-amure,53.1406,140.73,-5.47,86,77,3.54,RU,2024-11-11 22:24:08
222,umm kaddadah,13.6017,26.6876,21.15,25,0,7.04,SD,2024-11-11 22:24:09
223,auki,-8.7676,160.7034,29.36,69,92,0.35,SB,2024-11-11 22:24:11
224,qashyr,53.0675,76.1036,-8.47,82,99,6.63,KZ,2024-11-11 22:24:12
225,steinen,47.6445,7.7391,6.93,95,100,0.0,DE,2024-11-11 22:24:13
226,brookings,44.3114,-96.7984,0.06,91,0,2.57,US,2024-11-11 22:24:14
227,vail,32.0479,-110.712,15.88,36,1,0.89,US,2024-11-11 22:24:15
228,sinabang,2.4803,96.3801,25.62,87,100,1.63,ID,2024-11-11 22:24:16
229,rongelap,11.1635,166.8941,28.39,78,18,5.81,MH,2024-11-11 22:22:16
230,nadym,65.5333,72.5167,-22.33,100,76,4.51,RU,2024-11-11 22:24:19
231,lidzbark warminski,54.1259,20.5795,-1.66,82,0,0.5,PL,2024-11-11 22:24:20
232,vero beach,27.6386,-80.3973,24.46,93,0,0.0,US,2024-11-11 22:24:21
233,mount gambier,-37.8333,140.7667,25.08,42,89,3.53,AU,2024-11-11 22:24:22
234,vuktyl,63.8567,57.3094,-7.92,97,98,1.27,RU,2024-11-11 22:24:23
235,lihue,21.9789,-159.3672,24.77,89,100,6.69,US,2024-11-11 22:24:24
236,ngetkib,7.3645,134.5148,27.14,83,75,2.06,PW,2024-11-11 22:24:26
237,zouerate,22.7187,-12.4521,21.12,14,10,0.98,MR,2024-11-11 22:24:27
238,zeya,53.75,127.2667,-7.76,71,2,1.27,RU,2024-11-11 22:24:28
239,obo,5.3998,26.4869,21.11,92,31,0.52,CF,2024-11-11 22:24:29
240,copiapo,-27.3667,-70.3333,18.03,60,0,0.88,CL,2024-11-11 22:24:30
241,galle,6.0367,80.217,30.52,79,47,0.45,LK,2024-11-11 22:24:31
242,polyarnyy,69.1989,33.4478,2.36,87,100,5.05,RU,2024-11-11 22:21:00
243,mogocha,53.7333,119.7667,-6.55,70,50,1.93,RU,2024-11-11 22:24:34
244,novo aripuana,-5.1206,-60.3797,23.44,92,26,1.24,BR,2024-11-11 22:24:35
245,pangody,65.85,74.4859,-21.12,100,99,4.03,RU,2024-11-11 22:24:36
246,luderitz,-26.6481,15.1594,17.4,60,70,4.44,NA,2024-11-11 22:24:37
247,panguipulli,-39.6333,-72.3333,5.03,99,100,0.5,CL,2024-11-11 22:24:38
248,mont-tremblant,46.1949,-74.6264,3.1,90,100,5.72,CA,2024-11-11 22:21:30
249,camara de lobos,32.6333,-16.9667,20.35,79,40,5.66,PT,2024-11-11 22:24:43
250,qui nhon,13.7667,109.2333,25.9,85,100,5.26,VN,2024-11-11 22:21:36
251,tinaquillo,9.9186,-68.3047,21.51,95,35,2.02,VE,2024-11-11 22:24:45
252,teruel,40.6667,-0.6667,4.59,90,89,3.32,ES,2024-11-11 22:24:47
253,paczkow,50.464,17.0066,0.62,75,46,0.09,PL,2024-11-11 22:24:48
254,duba,27.3513,35.6901,24.05,40,12,1.84,SA,2024-11-11 22:24:50
255,constantia,44.1833,28.65,5.39,82,98,6.62,RO,2024-11-11 22:20:28
256,severo-yeniseyskiy,60.3725,93.0408,-13.19,86,97,3.43,RU,2024-11-11 22:23:58
257,huancavelica,-12.7667,-74.9833,1.58,98,100,0.78,PE,2024-11-11 22:24:54
258,matoury,4.8483,-52.3317,22.98,100,0,2.06,GF,2024-11-11 22:24:55
259,lospalos,-8.5186,127.0025,30.96,43,40,4.61,TL,2024-11-11 22:24:57
260,moyale,3.5167,39.0584,22.84,64,70,3.32,KE,2024-11-11 22:24:58
261,crane,31.3974,-102.3501,17.54,44,57,3.94,US,2024-11-11 22:24:59
262,kavieng,-2.5744,150.7967,29.36,68,17,1.74,PG,2024-11-11 22:25:00
263,kourou,5.1552,-52.6478,23.97,92,100,1.56,GF,2024-11-11 22:25:01
264,parry sound,45.3501,-80.033,1.29,76,96,6.97,CA,2024-11-11 22:25:02
265,kalmunai,7.4167,81.8167,29.98,67,18,1.63,LK,2024-11-11 22:25:04
266,igrim,63.1906,64.4162,-9.6,92,99,1.65,RU,2024-11-11 22:25:05
267,labuan,5.2767,115.2417,28.1,75,92,2.79,MY,2024-11-11 22:25:06
268,kigoma,-4.8769,29.6267,22.39,82,89,2.01,TZ,2024-11-11 22:25:07
269,santa marta,11.2408,-74.199,26.02,78,100,1.84,CO,2024-11-11 22:25:09
270,fonte boa,-2.4959,-66.2662,25.45,76,100,0.68,BR,2024-11-11 22:25:10
271,touros,-5.1989,-35.4608,25.01,76,48,3.51,BR,2024-11-11 22:25:11
272,nadi,-17.8,177.4167,29.0,61,40,4.12,FJ,2024-11-11 22:23:05
273,tahe,52.3333,124.7333,-4.29,74,38,2.64,CN,2024-11-11 22:25:13
274,pontianak,-0.0333,109.3333,31.99,62,40,1.03,ID,2024-11-11 22:25:15
275,lompoc,34.6391,-120.4579,11.5,84,0,5.81,US,2024-11-11 22:25:16
276,gamay,12.3854,125.2979,29.11,76,38,2.49,PH,2024-11-11 22:25:17
277,kavaratti,10.5669,72.642,28.86,67,93,4.56,IN,2024-11-11 22:25:19
278,cedeira,43.6797,-8.0209,14.35,85,50,9.9,ES,2024-11-11 22:25:20
279,bandarbeyla,9.4942,50.8122,27.15,75,52,7.87,SO,2024-11-11 22:25:21
280,ola,59.5833,151.2833,-13.04,71,96,5.45,RU,2024-11-11 22:25:22
281,chagoda,59.164,35.3285,-1.88,91,100,1.94,RU,2024-11-11 22:25:23
282,tibanbang,6.6315,126.1055,28.72,76,36,1.49,PH,2024-11-11 22:25:25
283,camocim,-2.9022,-40.8411,24.17,79,86,3.98,BR,2024-11-11 22:25:26
284,ataq,14.5377,46.8319,20.92,48,8,0.74,YE,2024-11-11 22:25:27
285,vysokiy,58.35,60.05,-5.97,80,100,5.01,RU,2024-11-11 22:25:28
286,sathyamangalam,11.5167,77.25,29.21,59,97,0.48,IN,2024-11-11 22:25:29
287,utrik,11.2278,169.8474,27.88,80,56,6.5,MH,2024-11-11 22:25:31
288,arraial do cabo,-22.9661,-42.0278,22.34,86,20,10.24,BR,2024-11-11 22:25:32
289,vila franca do campo,37.7167,-25.4333,20.23,99,70,7.09,PT,2024-11-11 22:25:33
290,kamikawa,43.84,142.7711,6.57,74,62,4.53,JP,2024-11-11 22:25:34
291,egilsstadir,65.2653,-14.3948,9.25,96,100,8.99,IS,2024-11-11 22:25:36
292,alexandria,31.2156,29.9553,19.26,65,0,2.54,EG,2024-11-11 22:25:38
293,geraldton,-28.7667,114.6,24.23,53,0,9.77,AU,2024-11-11 22:25:39
294,san pascual,13.7975,121.0342,28.84,77,17,2.97,PH,2024-11-11 22:25:41
295,magadan,59.5667,150.8,-12.88,70,99,3.79,RU,2024-11-11 22:25:42
296,qarauyl,48.9451,79.255,-7.08,49,32,4.59,KZ,2024-11-11 22:25:43
297,mokhsogollokh,61.4681,128.9203,-13.52,92,90,0.65,RU,2024-11-11 22:25:44
298,hauterive,46.0901,3.4459,6.0,93,91,3.24,FR,2024-11-11 22:25:46
299,olonkinbyen,70.9221,-8.7187,1.91,99,100,8.63,SJ,2024-11-11 22:25:47
300,inhambane,-23.865,35.3833,26.99,83,40,2.57,MZ,2024-11-11 22:25:48
301,vernon,50.2581,-119.2691,5.42,85,84,2.01,CA,2024-11-11 22:25:49
302,san patricio,28.017,-97.5169,19.97,70,38,2.42,US,2024-11-11 22:25:51
303,rethel,49.5,4.3333,8.96,84,100,6.12,FR,2024-11-11 22:25:53
304,dolores,-36.3132,-57.6792,7.31,93,29,3.01,AR,2024-11-11 22:25:55
305,phongsali,21.6833,102.1058,27.2,47,33,0.5,LA,2024-11-11 22:25:56
306,princeville,45.7668,-61.2985,10.18,95,81,2.44,CA,2024-11-11 22:25:57
307,cabo san lucas,22.8909,-109.9124,24.31,52,24,0.45,MX,2024-11-11 22:20:02
308,esmeraldas,-19.7625,-44.3139,20.79,84,98,1.26,BR,2024-11-11 22:25:59
309,kuala tungkal,-0.8167,103.4667,27.8,79,100,3.16,ID,2024-11-11 22:26:02
310,cannonvale,-20.2833,148.7,26.66,62,18,4.81,AU,2024-11-11 22:26:03
311,east london,-33.0153,27.9116,19.26,77,66,4.14,ZA,2024-11-11 22:26:04
312,tara,56.8944,74.371,-11.2,88,100,4.71,RU,2024-11-11 22:26:05
313,siyabuswa,-25.1132,29.0445,19.61,76,20,5.55,ZA,2024-11-11 22:26:06
314,am timan,11.0297,20.2827,22.36,39,34,2.83,TD,2024-11-11 22:26:08
315,whitehorse,60.7161,-135.0538,-3.57,100,100,1.54,CA,2024-11-11 22:26:09
316,aitape,-3.1374,142.3475,28.84,80,76,3.27,PG,2024-11-11 22:26:10
317,doganyol,38.3118,39.0382,8.1,74,4,1.91,TR,2024-11-11 22:26:11
318,whittlesey,52.558,-0.1302,7.86,90,48,4.19,GB,2024-11-11 22:26:12
319,ciudad bolivar,8.1222,-63.5497,25.66,86,59,3.4,VE,2024-11-11 22:26:13
320,omidiyeh,30.7597,49.705,28.42,27,52,1.22,IR,2024-11-11 22:26:15
321,bikenibeu village,1.3673,173.1241,28.29,67,31,6.38,KI,2024-11-11 22:26:17
322,creel,27.75,-107.6333,6.52,35,40,0.48,MX,2024-11-11 22:26:18
323,batarasa,8.6617,117.6222,30.72,65,62,1.92,PH,2024-11-11 22:26:19
324,daru,-9.0763,143.2092,27.7,81,100,5.76,PG,2024-11-11 22:25:23
325,hami,42.8,93.45,10.43,42,24,0.74,CN,2024-11-11 22:22:13
326,torghay,49.6339,63.4981,-4.6,76,7,2.19,KZ,2024-11-11 22:26:23
327,gaigeturi,33.4644,126.3183,18.15,73,3,6.2,KR,2024-11-11 22:26:24
328,amga,60.8953,131.9608,-13.12,92,98,1.42,RU,2024-11-11 22:26:26
329,laguna,38.421,-121.4238,10.08,90,0,2.57,US,2024-11-11 22:23:10
330,kenora,49.8167,-94.4337,-1.79,86,100,2.68,CA,2024-11-11 22:26:29
331,urucui,-7.2294,-44.5561,22.48,94,100,1.16,BR,2024-11-11 22:21:32
332,arkhangel'sk,64.5401,40.5433,0.06,100,100,6.0,RU,2024-11-11 22:26:31
333,rabaul,-4.1967,152.1721,29.22,70,49,3.31,PG,2024-11-11 22:26:33
334,codrington,-38.2667,141.9667,15.5,86,85,3.14,AU,2024-11-11 22:26:34
335,mahina,-17.5065,-149.489,26.87,74,75,1.54,PF,2024-11-11 22:26:35
336,carnarvon,-24.8667,113.6333,26.34,49,94,8.38,AU,2024-11-11 22:26:37
337,aras-asan,8.8908,126.3033,29.83,65,58,3.59,PH,2024-11-11 22:26:39
338,obsharovka,53.125,48.8531,-1.15,87,13,1.94,RU,2024-11-11 22:26:40
339,ungsang-nodongjagu,42.3578,130.4622,8.06,31,0,7.58,KP,2024-11-11 22:26:41
340,suva,-18.1416,178.4415,24.71,94,75,3.6,FJ,2024-11-11 22:26:42
341,mount isa,-20.7333,139.5,39.87,16,52,3.09,AU,2024-11-11 22:26:44
342,nchelenge,-9.3451,28.734,21.28,79,78,1.77,ZM,2024-11-11 22:26:45
343,safotu,-13.4513,-172.4018,27.84,80,93,6.01,WS,2024-11-11 22:26:46
344,kutum,14.2,24.6667,17.01,32,0,2.58,SD,2024-11-11 22:26:47
345,saruhanli,38.7346,27.5681,1.24,91,0,0.75,TR,2024-11-11 22:26:48
346,kirakira,-10.4544,161.9205,28.29,81,100,5.34,SB,2024-11-11 22:26:49
347,ulsteinvik,62.3432,5.8487,9.86,83,98,2.24,NO,2024-11-11 22:26:50
348,cabeceiras de basto,41.5208,-7.972,8.98,88,8,2.82,PT,2024-11-11 22:26:52
349,tolanaro,-25.0319,46.9987,27.89,63,96,1.03,MG,2024-11-11 22:26:53
350,kuliyapitiya,7.4688,80.0401,31.28,58,52,2.23,LK,2024-11-11 22:26:54
351,stephenville,32.2207,-98.2023,15.07,58,0,0.0,US,2024-11-11 22:26:55
352,nelson bay,-32.7167,152.15,21.16,100,100,3.13,AU,2024-11-11 22:26:57
353,paraiso,9.8383,-83.8656,18.01,98,100,0.9,CR,2024-11-11 22:26:58
354,mantua,45.1667,10.7833,4.99,84,100,4.7,IT,2024-11-11 22:26:59
355,howard springs,-12.497,131.047,34.37,55,35,4.6,AU,2024-11-11 22:27:00
356,broome,42.2506,-75.833,7.03,85,20,5.66,US,2024-11-11 22:27:02
357,baiyin,36.5583,104.2081,10.32,46,47,1.85,CN,2024-11-11 22:27:03
358,juan l. lacaze,-34.4333,-57.4167,16.06,63,4,10.24,UY,2024-11-11 22:27:04
359,mizdah,31.4451,12.9801,13.87,85,1,1.74,LY,2024-11-11 22:27:05
360,urangan,-25.3,152.9,24.19,81,100,9.01,AU,2024-11-11 22:27:06
361,shache,38.4167,77.2406,11.6,45,28,1.32,CN,2024-11-11 22:27:08
362,busayra,30.7376,35.6078,12.76,52,36,1.16,JO,2024-11-11 22:27:09
363,leava,-14.3,-178.1667,27.88,78,38,5.25,WF,2024-11-11 22:27:10
364,mananara,-16.1667,49.7667,26.33,76,73,1.24,MG,2024-11-11 22:27:11
365,aurora,39.7294,-104.8319,6.66,58,20,3.09,US,2024-11-11 22:27:12
366,sao jose da coroa grande,-8.8978,-35.1478,25.2,75,57,2.83,BR,2024-11-11 22:27:13
367,belyy yar,53.6039,91.3903,-1.06,40,0,12.0,RU,2024-11-11 22:27:14
368,inverness,57.4791,-4.224,4.91,100,63,3.09,GB,2024-11-11 22:27:16
369,kotlas,61.2611,46.6556,-0.62,90,100,4.22,RU,2024-11-11 22:27:17
370,mermoz boabab,14.7065,-17.4758,26.87,68,85,7.81,SN,2024-11-11 22:27:18
371,ashland,40.8167,-82.2665,6.04,90,20,5.89,US,2024-11-11 22:22:31
372,utete,-7.986,38.758,25.99,80,91,0.56,TZ,2024-11-11 22:27:20
373,mpanda,-6.3655,31.0409,21.08,80,63,0.39,TZ,2024-11-11 22:27:21
374,zaozersk,69.4005,32.4476,2.08,88,100,4.38,RU,2024-11-11 22:27:23
375,isiro,2.7739,27.616,19.75,98,100,0.62,CD,2024-11-11 22:27:24
376,pachino,36.7186,15.0907,17.3,83,100,5.35,IT,2024-11-11 22:27:25
377,korla,41.7597,86.1469,10.34,54,30,2.84,CN,2024-11-11 22:27:26
378,dhidhdhoo,6.8833,73.1,28.32,71,39,3.32,MV,2024-11-11 22:27:27
379,malazgirt,39.1427,42.5401,5.79,82,88,0.84,TR,2024-11-11 22:27:29
380,imbituba,-28.24,-48.6703,19.68,88,63,5.84,BR,2024-11-11 22:27:30
381,okhotsk,59.3833,143.3,-12.79,66,51,8.96,RU,2024-11-11 22:27:31
382,samdrup jongkhar,26.9167,91.6167,19.99,42,0,2.23,BT,2024-11-11 22:27:32
383,pisco,-13.7,-76.2167,17.03,88,0,3.6,PE,2024-11-11 22:27:33
384,grand falls-windsor,48.9332,-55.6649,8.06,93,100,3.58,CA,2024-11-11 22:27:34
385,menongue,-14.6585,17.691,16.91,94,100,1.06,AO,2024-11-11 22:27:35
386,dolinsk,47.35,142.8,2.04,86,100,2.93,RU,2024-11-11 22:27:38
387,andergrove,-21.0833,149.1833,26.69,64,11,5.34,AU,2024-11-11 22:27:39
388,melekeok village,7.4957,134.6367,27.31,83,75,2.06,PW,2024-11-11 22:27:41
389,tobol'sk,58.2,68.2667,-9.93,93,100,3.19,RU,2024-11-11 22:27:42
390,kita,13.0349,-9.4895,20.96,38,43,0.72,ML,2024-11-11 22:27:43
391,kingston,17.997,-76.7936,25.09,95,83,0.99,JM,2024-11-11 22:27:45
392,del rio,29.3627,-100.8968,19.51,68,0,2.57,US,2024-11-11 22:27:46
393,uffenheim,49.5333,10.25,5.2,96,100,2.11,DE,2024-11-11 22:27:47
394,bayramaly,37.6185,62.1671,13.67,45,94,2.77,TM,2024-11-11 22:27:48
395,bamboo flat,11.7,92.7167,29.05,79,75,2.57,IN,2024-11-11 22:27:49
396,hadibu,12.65,54.0333,26.6,73,37,5.78,YE,2024-11-11 22:27:50
397,tazacorte,28.629,-17.9293,21.19,71,40,4.12,ES,2024-11-11 22:27:51
398,soygaon,20.6,75.6167,28.13,38,0,3.18,IN,2024-11-11 22:27:53
399,tual,-5.6667,132.75,28.21,74,72,3.94,ID,2024-11-11 22:27:54
400,comodoro rivadavia,-45.8667,-67.5,13.92,44,0,13.38,AR,2024-11-11 22:27:55
401,juneau,58.3019,-134.4197,4.0,97,100,1.54,US,2024-11-11 22:24:02
402,sultanah,24.4926,39.5857,24.25,23,0,0.0,SA,2024-11-11 22:27:57
403,bonny,4.4522,7.1681,26.02,85,18,2.74,NG,2024-11-11 22:27:58
404,palmas,-10.2128,-48.3603,21.93,100,75,2.06,BR,2024-11-11 22:27:59
405,northam,51.0333,-4.2167,9.23,85,66,2.53,GB,2024-11-11 22:28:01
406,sao felipe,-14.8167,-41.3833,20.76,94,45,0.72,BR,2024-11-11 22:28:02
407,delta,5.5,6.0,23.33,97,15,0.5,NG,2024-11-11 22:26:47
408,isla mujeres,21.2311,-86.731,24.03,82,4,0.43,MX,2024-11-11 22:28:04
409,labrador city,52.9463,-66.9114,-3.79,80,100,26.82,CA,2024-11-11 22:28:05
410,kristiansund,63.1115,7.732,8.4,71,75,3.6,NO,2024-11-11 22:28:06
411,fale old settlement,-9.3852,-171.2468,28.51,74,10,6.43,TK,2024-11-11 22:28:09
412,kankaanpaa,61.8,22.4167,3.74,83,100,2.83,FI,2024-11-11 22:28:10
413,midvagur,62.0511,-7.1939,10.46,100,100,6.17,FO,2024-11-11 22:28:14
414,baise city,23.8997,106.6133,27.41,99,22,2.58,CN,2024-11-11 22:28:15
415,alamos,27.0167,-108.9333,20.6,23,86,1.5,MX,2024-11-11 22:28:16
416,olavarria,-36.8927,-60.3225,7.28,86,80,1.41,AR,2024-11-11 22:28:17
417,quellon,-43.1167,-73.6167,9.32,93,100,3.15,CL,2024-11-11 22:24:31
418,toropets,56.4978,31.6353,0.16,95,100,1.9,RU,2024-11-11 22:28:20
419,beni,0.5,29.4667,17.12,99,100,0.38,CD,2024-11-11 22:28:21
420,statesboro,32.4488,-81.7832,15.89,94,40,0.0,US,2024-11-11 22:28:22
421,alaghsas,17.0187,8.0168,19.42,26,0,4.93,NE,2024-11-11 22:28:23
422,opuwo,-18.0607,13.84,20.42,44,3,1.18,NA,2024-11-11 22:28:24
423,naze,28.3667,129.4833,22.95,77,100,4.79,JP,2024-11-11 22:28:25
424,coronel suarez,-37.4547,-61.9334,8.6,73,93,1.09,AR,2024-11-11 22:28:26
425,praia da vitoria,38.7333,-27.0667,19.42,93,99,9.24,PT,2024-11-11 22:26:49
426,agat village,13.3886,144.6585,30.53,81,0,5.66,GU,2024-11-11 22:28:29
427,rabo de peixe,37.8,-25.5833,19.73,99,75,8.23,PT,2024-11-11 22:28:30
428,sidney,-33.8679,151.2073,24.86,73,75,7.2,AU,2024-11-11 22:25:25
429,karatuzskoye,53.6072,92.8667,-2.38,61,100,7.94,RU,2024-11-11 22:28:32
430,cascais,38.6979,-9.4215,15.84,66,0,4.02,PT,2024-11-11 22:28:33
431,zhosaly,45.4878,64.0781,0.41,60,37,5.53,KZ,2024-11-11 22:28:34
432,sittwe,20.15,92.9,29.1,63,6,0.57,MM,2024-11-11 22:28:36
433,la punta,-33.1837,-66.3127,14.24,33,0,2.05,AR,2024-11-11 22:28:37
434,sirte,31.2089,16.5887,19.55,39,22,6.33,LY,2024-11-11 22:28:38
435,mhamid,29.82,-5.72,17.76,43,79,4.23,MA,2024-11-11 22:28:39
436,muisne,0.6,-80.0333,22.78,80,63,2.55,EC,2024-11-11 22:28:40
437,labytnangi,66.6572,66.4183,-18.96,99,100,0.77,RU,2024-11-11 22:28:41
438,redencao,-4.2258,-38.7306,21.87,90,99,0.08,BR,2024-11-11 22:28:43
439,soio,-6.1349,12.3689,24.9,90,92,2.42,AO,2024-11-11 22:28:44
440,pimentel,-6.8367,-79.9342,17.16,94,20,4.63,PE,2024-11-11 22:28:46
441,polla,40.5171,15.498,6.03,88,100,2.27,IT,2024-11-11 22:28:47
442,natal,-5.795,-35.2094,22.36,94,20,1.03,BR,2024-11-11 22:28:48
443,katsuura,35.1333,140.3,19.91,73,95,2.6,JP,2024-11-11 22:28:49
444,errachidia,31.9275,-4.4285,13.36,58,4,1.0,MA,2024-11-11 22:28:51
445,hastings,50.8552,0.5729,7.1,53,83,9.59,GB,2024-11-11 22:28:52
446,santa lucia,27.9117,-15.5407,16.62,73,75,5.66,ES,2024-11-11 22:28:53
447,klaksvik,62.2266,-6.589,11.19,89,50,8.21,FO,2024-11-11 22:28:54
448,greymouth,-42.4667,171.2,13.92,58,0,2.84,NZ,2024-11-11 22:28:55
449,al qubbah,32.7616,22.2424,14.42,61,7,5.52,LY,2024-11-11 22:28:56
450,neryungri,56.6709,124.6491,-11.9,77,92,1.61,RU,2024-11-11 22:28:58
451,matane,48.8286,-67.522,1.97,95,100,0.6,CA,2024-11-11 22:28:59
452,tazovsky,67.4667,78.7,-24.22,95,72,5.43,RU,2024-11-11 22:29:00
453,st. john's,47.5649,-52.7093,8.42,93,100,11.83,CA,2024-11-11 22:29:01
454,vila velha,-20.3297,-40.2925,20.97,88,0,1.54,BR,2024-11-11 22:29:02
455,alesund,62.4723,6.1549,9.86,77,75,5.14,NO,2024-11-11 22:26:19
456,puerto santa,-8.9906,-78.6456,17.52,89,100,3.63,PE,2024-11-11 22:29:04
457,leksand,60.7339,15.0032,3.68,83,25,1.78,SE,2024-11-11 22:29:06
458,qamdo,31.1667,97.2333,7.52,28,0,4.08,CN,2024-11-11 22:28:33
459,formosa do rio preto,-11.0483,-45.1931,20.43,96,65,0.64,BR,2024-11-11 22:29:08
460,buala,-8.145,159.5921,29.12,74,93,3.2,SB,2024-11-11 22:29:09
461,tarawa,1.419,172.984,28.41,68,34,6.64,KI,2024-11-11 22:29:10
462,bodden town,19.2833,-81.25,27.43,74,43,1.61,KY,2024-11-11 22:29:11
463,upata,8.0086,-62.3989,21.37,97,47,1.01,VE,2024-11-11 22:29:12
464,sitka,57.0531,-135.33,5.94,81,40,0.0,US,2024-11-11 22:29:14
465,warren,39.4334,-84.1666,7.91,78,0,5.14,US,2024-11-11 22:29:15
466,shimoda,34.6667,138.95,20.81,76,68,3.53,JP,2024-11-11 22:29:16
467,lavelanet,42.9313,1.8466,8.36,89,100,2.24,FR,2024-11-11 22:29:17
468,marka,1.7159,44.7717,27.66,76,80,3.86,SO,2024-11-11 22:29:18
469,camacupa,-12.0167,17.4833,16.27,96,99,2.77,AO,2024-11-11 22:29:19
470,tofol,5.3248,163.0078,29.4,70,94,6.86,FM,2024-11-11 22:29:21
471,isabel segunda,18.1491,-65.4427,26.85,79,100,7.53,PR,2024-11-11 22:29:22
472,saynshand,44.8824,110.1163,5.81,43,1,7.46,MN,2024-11-11 22:29:23
473,katabu,-4.9333,122.5167,28.74,77,81,1.65,ID,2024-11-11 22:29:24
474,karratha,-20.7377,116.8463,35.96,27,18,7.32,AU,2024-11-11 22:29:26
475,konin,52.2234,18.2512,-1.44,69,17,1.51,PL,2024-11-11 22:29:27
476,bluefields,12.0137,-83.7635,23.81,92,97,1.06,NI,2024-11-11 22:29:28
477,bentiu,9.2333,29.8333,26.4,50,28,1.23,SS,2024-11-11 22:29:31
478,kulunda,52.566,78.9385,-7.43,75,99,7.77,RU,2024-11-11 22:29:32
479,tsiombe,-25.3,45.4833,28.54,56,51,1.33,MG,2024-11-11 22:29:33
480,kodinsk,58.6881,99.1844,-6.73,77,100,0.94,RU,2024-11-11 22:25:21
481,manaure,11.7751,-72.4445,27.23,79,100,1.37,CO,2024-11-11 22:29:35
482,darwin,-12.4611,130.8418,34.41,49,40,7.2,AU,2024-11-11 22:29:37
483,villa gesell,-37.2639,-56.973,11.08,70,8,4.45,AR,2024-11-11 22:29:38
484,nuuk,64.1835,-51.7216,-1.66,74,75,4.12,GL,2024-11-11 22:28:42
485,nagqu,31.5,92.0,5.44,7,40,11.68,CN,2024-11-11 22:29:40
486,sant'antioco,39.0664,8.4522,15.9,81,100,2.09,IT,2024-11-11 22:29:42
487,uliastay,47.7417,96.8444,-2.15,65,75,1.68,MN,2024-11-11 22:29:44
488,byron bay,-28.65,153.6167,21.26,94,95,3.15,AU,2024-11-11 22:29:45
489,champerico,14.3,-91.9167,25.62,85,99,2.69,GT,2024-11-11 22:29:47
490,damasak,13.0977,12.4952,21.68,34,5,4.16,NG,2024-11-11 22:29:49
491,ulaangom,49.9811,92.0667,7.86,26,100,11.85,MN,2024-11-11 22:29:50
492,flying fish cove,-10.4217,105.6791,27.82,83,75,6.17,CX,2024-11-11 22:29:51
493,revda,56.801,59.9303,-8.06,85,100,5.43,RU,2024-11-11 22:29:54
494,tbeng meanchey,13.8167,104.9667,32.9,51,96,0.23,KH,2024-11-11 22:29:55
495,malax,62.9423,21.5731,3.32,93,100,2.57,FI,2024-11-11 22:29:56
496,zaki biam,7.5167,9.6167,21.42,51,41,2.08,NG,2024-11-11 22:29:58
497,zharkent,44.1628,80.0,5.7,62,100,0.96,KZ,2024-11-11 22:29:59
498,savanna-la-mar,18.219,-78.1332,24.96,92,87,1.3,JM,2024-11-11 22:30:00
499,rio branco,-9.9747,-67.81,25.34,88,75,2.57,BR,2024-11-11 22:30:01
500,caxias,38.7031,-9.2767,15.82,63,0,4.63,PT,2024-11-11 22:30:02
501,luena,-11.7833,19.9167,18.18,90,69,1.87,AO,2024-11-11 22:30:04
502,arendal,58.4615,8.7725,3.43,82,99,1.25,NO,2024-11-11 22:30:05
503,yasuj,30.6682,51.588,16.45,40,37,1.23,IR,2024-11-11 22:30:06
504,preobrazheniye,42.9019,133.9064,8.35,44,0,4.97,RU,2024-11-11 22:30:07
505,dudinka,69.4058,86.1778,-22.55,91,74,7.2,RU,2024-11-11 22:30:08
506,ghat,24.9647,10.1728,17.1,31,2,0.86,LY,2024-11-11 22:30:09
507,oranjemund,-28.55,16.4333,16.49,80,13,3.32,NA,2024-11-11 22:30:10
508,bronkhorstspruit,-25.8102,28.7425,17.24,75,59,5.54,ZA,2024-11-11 22:30:12
509,bull savanna,17.8868,-77.5902,24.63,82,100,1.34,JM,2024-11-11 22:30:13
510,ta`u,-14.2336,-169.5144,27.26,76,79,4.32,AS,2024-11-11 22:30:14
511,rampur,28.8167,79.0333,28.07,42,0,0.53,IN,2024-11-11 22:30:15
512,shivpuri,25.4333,77.65,29.21,30,1,0.81,IN,2024-11-11 22:30:16
513,entebbe,0.0644,32.4469,20.18,88,20,2.06,UG,2024-11-11 22:30:17
514,fortaleza,-3.7227,-38.5247,26.79,83,20,3.6,BR,2024-11-11 22:30:20
515,loango,-4.6719,11.8312,24.67,90,81,2.88,CG,2024-11-11 22:30:21
516,nehe,48.4833,124.8333,-0.17,66,8,2.55,CN,2024-11-11 22:30:22
517,qalat,32.1058,66.9083,13.5,28,25,2.15,AF,2024-11-11 22:30:24
518,lander,42.833,-108.7307,4.45,56,0,4.63,US,2024-11-11 22:30:26
519,lapinlahti,65.5833,30.5667,0.51,93,100,1.92,RU,2024-11-11 22:30:27
520,caleta de carquin,-11.0925,-77.6267,17.91,90,100,3.31,PE,2024-11-11 22:30:28
521,bonthe,7.5264,-12.505,25.47,82,10,0.81,SL,2024-11-11 22:30:29
522,dadukou,26.5479,101.7054,24.3,52,36,0.35,CN,2024-11-11 22:30:30
523,bahawalnagar,30.5508,73.3908,29.7,28,6,3.1,PK,2024-11-11 22:30:31
524,enewetak,11.3474,162.3373,28.47,79,8,5.72,MH,2024-11-11 22:30:33
525,monze,-16.2833,27.4833,23.29,66,100,1.96,ZM,2024-11-11 22:30:34
526,kaesong,37.9708,126.5544,17.17,40,0,4.04,KP,2024-11-11 22:30:35
527,vilyuysk,63.7553,121.6247,-12.72,96,97,1.38,RU,2024-11-11 22:30:36
528,thunder bay,48.4001,-89.3168,-1.2,80,17,1.33,CA,2024-11-11 22:30:37
529,katsuren-haebaru,26.3369,127.8719,26.01,87,100,5.66,JP,2024-11-11 22:30:38
530,inazawa,35.25,136.7833,22.93,44,0,1.02,JP,2024-11-11 22:30:40
531,nova vicosa,-17.8919,-39.3719,22.36,85,0,1.78,BR,2024-11-11 22:30:41
532,lodja,-3.4833,23.4333,25.03,68,50,1.39,CD,2024-11-11 22:30:42
533,de queen,34.0379,-94.3413,11.12,93,0,1.54,US,2024-11-11 22:30:43
534,dwarka,22.2394,68.9678,30.01,47,30,2.52,IN,2024-11-11 22:30:44
535,dabat,12.9842,37.765,15.6,55,51,2.93,ET,2024-11-11 22:30:45
536,mangrol,21.1167,70.1167,30.34,43,4,2.09,IN,2024-11-11 22:30:47
537,knyaze-volkonskoye,48.4642,135.4567,0.19,56,98,6.08,RU,2024-11-11 22:30:48
538,reggane,26.7158,0.1714,18.92,40,6,4.47,DZ,2024-11-11 22:30:49
539,kerikeri,-35.2268,173.9474,16.31,73,37,1.85,NZ,2024-11-11 22:30:51
540,onguday,50.75,86.15,-3.47,67,100,4.22,RU,2024-11-11 22:30:52
541,bam,29.106,58.357,22.62,25,0,1.66,IR,2024-11-11 22:30:53
542,haiku-pauwela,20.9219,-156.3051,24.47,84,40,6.71,US,2024-11-11 22:30:55
543,madison heights,42.4859,-83.1052,7.71,80,100,7.72,US,2024-11-11 22:30:56
544,dubna,56.7333,37.1667,-1.39,84,95,2.31,RU,2024-11-11 22:30:57
545,ulladulla,-35.35,150.4667,20.67,72,100,3.75,AU,2024-11-11 22:30:58
546,sao gabriel da cachoeira,-0.1303,-67.0892,23.76,87,52,1.2,BR,2024-11-11 22:30:59
547,ust'-kulom,61.6864,53.6902,-0.93,96,100,3.68,RU,2024-11-11 22:31:00
548,tidjikja,18.5564,-11.4271,21.49,17,51,4.87,MR,2024-11-11 22:31:02
549,crotone,39.0851,17.1178,14.69,60,100,7.74,IT,2024-11-11 22:31:03
550,forster,-32.1667,152.5167,19.65,93,98,2.03,AU,2024-11-11 22:31:04
551,kikwit,-5.041,18.8162,22.57,91,28,0.78,CD,2024-11-11 22:31:05
552,guasdualito,7.2424,-70.7324,24.98,88,0,1.77,VE,2024-11-11 22:31:06
553,sarangani,5.4033,125.4636,29.07,69,19,3.08,PH,2024-11-11 22:31:07
554,santa elena de uairen,4.6167,-61.1333,19.81,85,71,1.3,VE,2024-11-11 22:31:08
555,homun,20.7333,-89.2833,21.69,97,35,1.16,MX,2024-11-11 22:31:10
556,sayat,38.7839,63.8803,13.6,40,90,1.84,TM,2024-11-11 22:31:11
557,onega,63.9061,38.1404,-0.5,88,91,3.77,RU,2024-11-11 22:31:12
558,callao,-12.0667,-77.15,19.84,77,100,5.14,PE,2024-11-11 22:31:13
559,tottori,35.5,134.2333,17.59,66,0,2.37,JP,2024-11-11 22:31:14
560,bondo,3.8146,23.6866,22.81,90,60,0.98,CD,2024-11-11 22:31:15
561,terrace,54.5163,-128.6035,3.95,100,100,1.54,CA,2024-11-11 22:31:18
562,taoudenni,22.6783,-3.9836,22.42,23,79,2.81,ML,2024-11-11 22:31:19
563,mojo,8.6,39.1167,19.42,50,17,3.9,ET,2024-11-11 22:31:20
564,la paz,-16.5,-68.15,9.99,66,75,1.03,BO,2024-11-11 22:30:55
565,santa ana,33.7456,-117.8678,16.46,83,3,0.89,US,2024-11-11 22:28:40
566,alagoinhas,-12.1356,-38.4192,21.61,89,88,2.27,BR,2024-11-11 22:31:24
567,krasnoturansk,54.3186,91.5639,-2.74,40,88,8.95,RU,2024-11-11 22:31:25
568,namibe,-15.1961,12.1522,22.8,67,51,2.11,AO,2024-11-11 22:31:26
569,casper,42.8666,-106.3131,7.33,42,0,6.69,US,2024-11-11 22:30:52
570,benjamin constant,-4.3831,-70.0311,24.07,74,100,0.77,BR,2024-11-11 22:31:28
571,wau,7.7029,27.9953,28.68,48,43,0.91,SS,2024-11-11 22:31:30
572,nantucket,41.2835,-70.0995,13.06,94,0,7.27,US,2024-11-11 22:31:31
573,suong,11.9115,105.6533,31.28,61,95,2.45,KH,2024-11-11 22:31:32
574,harnosand,62.6323,17.9379,0.0,74,61,8.71,SE,2024-11-11 22:31:33
575,barclayville,4.6797,-8.2339,24.28,89,10,1.91,LR,2024-11-11 22:31:34
576,bahir dar,11.5936,37.3908,20.29,65,13,1.58,ET,2024-11-11 22:30:01
577,pagar alam,-4.0167,103.2667,25.66,82,100,1.31,ID,2024-11-11 22:31:37
578,nacozari de garcia,30.3742,-109.6908,10.52,40,84,0.75,MX,2024-11-11 22:31:39
579,kill devil hills,36.0307,-75.676,18.32,96,0,2.57,US,2024-11-11 22:31:40
580,sault ste. marie,46.5168,-84.3333,1.16,69,0,3.09,CA,2024-11-11 22:31:41
581,riyadh,24.6877,46.7219,25.24,31,23,2.39,SA,2024-11-11 22:31:42
582,cam ranh,11.9214,109.1591,31.98,62,20,4.12,VN,2024-11-11 22:31:43
583,miguel ahumada,30.6167,-106.5167,15.19,21,100,2.41,MX,2024-11-11 22:31:44
584,tuy hoa,13.0833,109.3,26.68,85,100,0.49,VN,2024-11-11 22:31:46
585,wanning,18.8003,110.3967,25.86,82,98,5.72,CN,2024-11-11 22:31:47
586,sinnar,13.5691,33.5672,29.84,46,2,6.72,SD,2024-11-11 22:31:48
587,lerwick,60.1545,-1.1494,10.3,90,95,6.3,GB,2024-11-11 22:31:49
